Timestamp,Accel_X,Accel_Y,Accel_Z,Gyro_X,Gyro_Y,Gyro_Z,Roll,Pitch,Yaw,Cloudiness,CurrentSpeed,CurrentTravelTime,FreeFlowSpeed,FreeFlowTravelTime,Humidity,Latitude,Longitude,RoadClosure,RoadTypeDescription,Temperature,TrafficIntensity,Visibility,WeatherDescription,WeatherIntensity,WindSpeed,target
16:40:00,-2.19000006,0.09,9.56000042,-2.49330473,0.27983695,9.63311672,3.07723355,-0.212712,-0.0141808,0,19,312,19,312,29,19.0456303,72.8934679,0,Local connecting road,33.02,0,4000,smoke,Low,6.17,0.0
16:40:00,-2.00999999,0.25,9.65999985,-2.34894609,0.17159596,9.68847179,3.07287025,-0.20725785,-0.02072578,0,19,312,19,312,29,19.0456303,72.8934679,0,Local connecting road,33.02,0,4000,smoke,Low,6.17,0.0
16:40:00,-2.01999998,0.25,9.47000027,-2.37398839,0.18374588,9.67780304,3.07287025,-0.21053034,-0.01963495,0,19,312,19,312,29,19.0456303,72.8934679,0,Local connecting road,33.02,0,4000,smoke,Low,6.17,0.0
16:40:00,-2.20000005,0.06,9.69999981,-2.40246272,0.19989376,9.67141914,3.07505202,-0.212712,-0.01527163,0,19,312,19,312,29,19.0456303,72.8934679,0,Local connecting road,33.02,0,4000,smoke,Low,6.17,0.0
16:40:00,-2.05999994,0.15000001,9.60000038,-2.4437573,0.22646554,9.67129898,3.07505202,-0.21380283,-0.01199914,0,19,312,19,312,29,19.0456303,72.8934679,0,Local connecting road,33.02,0,4000,smoke,Low,6.17,0.0
16:40:00,-2.1400001,0.08,9.68000031,-2.45783901,0.22865106,9.66275406,3.07614279,-0.21380283,-0.01199914,0,19,312,19,312,29,19.0456303,72.8934679,0,Local connecting road,33.02,0,4000,smoke,Low,6.17,0.0
16:40:00,-2.0999999,0.22,9.48999977,-2.42034459,0.21837373,9.66583538,3.07505202,-0.21380283,-0.0141808,0,19,312,19,312,29,19.0456303,72.8934679,0,Local connecting road,33.02,0,4000,smoke,Low,6.17,0.0
16:40:00,-2.0999999,0.08,9.73999977,-2.46251345,0.23236965,9.66026974,3.07614279,-0.21380283,-0.01090831,0,19,312,19,312,29,19.0456303,72.8934679,0,Local connecting road,33.02,0,4000,smoke,Low,6.17,0.0
16:40:00,-2.07999992,0.16,9.56000042,-2.46991158,0.24235423,9.64614296,3.07832456,-0.21380283,-0.01090831,0,19,312,19,312,29,19.0456303,72.8934679,0,Local connecting road,33.02,0,4000,smoke,Low,6.17,0.0
16:40:00,-2.04999995,0.2,9.59000015,-2.47849393,0.26028493,9.64102554,3.07832456,-0.21489367,-0.01090831,0,19,312,19,312,29,19.0456303,72.8934679,0,Local connecting road,33.02,0,4000,smoke,Low,6.17,0.0
16:40:00,-2.27999997,-0.08,9.46000004,-2.48536372,0.26651523,9.63394165,3.08050609,-0.21598449,-0.01090831,0,19,312,19,312,29,19.0456303,72.8934679,0,Local connecting road,33.02,0,4000,smoke,Low,6.17,0.0
16:40:00,-2.08999991,0.08,9.57999992,-2.46057558,0.23605976,9.65927696,3.07614279,-0.21380283,-0.01199914,0,19,312,19,312,29,19.0456303,72.8934679,0,Local connecting road,33.02,0,4000,smoke,Low,6.17,0.0
16:40:01,-1.86000001,0.44999999,9.57999992,-2.17091489,0.148555,9.68038082,3.07396126,-0.1985312,-0.04145157,0,19,312,19,312,29,19.0456311,72.8934683,0,Local connecting road,33.02,0,4000,smoke,Low,6.17,0.0
16:40:01,-1.80999994,0.63999999,9.48999977,-2.1032784,0.13293734,9.67248344,3.07287025,-0.19307704,-0.05235988,0,19,312,19,312,29,19.0456311,72.8934683,0,Local connecting road,33.02,0,4000,smoke,Low,6.17,0.0
16:40:01,-1.97000003,0.44,9.64000034,-2.14373827,0.14259095,9.67443371,3.07505202,-0.19634955,-0.04581489,0,19,312,19,312,29,19.0456311,72.8934683,0,Local connecting road,33.02,0,4000,smoke,Low,6.17,0.0
16:40:01,-1.95000005,0.41,9.63000011,-2.15853405,0.14214639,9.67263603,3.07505202,-0.19744037,-0.04363323,0,19,312,19,312,29,19.0456311,72.8934683,0,Local connecting road,33.02,0,4000,smoke,Low,6.17,0.0
16:40:01,-1.91999996,0.44,9.56999969,-2.20288515,0.15927806,9.67430401,3.07505202,-0.19962204,-0.03926991,0,19,312,19,312,29,19.0456311,72.8934683,0,Local connecting road,33.02,0,4000,smoke,Low,6.17,0.0
16:40:01,-1.80999994,0.56,9.64999962,-2.12113857,0.13133913,9.68558216,3.07287025,-0.19416788,-0.04908739,0,19,312,19,312,29,19.0456311,72.8934683,0,Local connecting road,33.02,0,4000,smoke,Low,6.17,0.0
16:40:01,-2.02999997,0.33000001,9.60999966,-2.26528907,0.17661893,9.66261005,3.07505202,-0.20289452,-0.03272492,0,19,312,19,312,29,19.0456311,72.8934683,0,Local connecting road,33.02,0,4000,smoke,Low,6.17,0.0
16:40:01,-1.98000002,0.36000001,9.57999992,-2.27634096,0.16723871,9.66368389,3.07396126,-0.20398536,-0.03054326,0,19,312,19,312,29,19.0456311,72.8934683,0,Local connecting road,33.02,0,4000,smoke,Low,6.17,0.0
16:40:01,-2.01999998,0.25999999,9.64999962,-2.29551363,0.17392981,9.67414188,3.07396126,-0.20507619,-0.0283616,0,19,312,19,312,29,19.0456311,72.8934683,0,Local connecting road,33.02,0,4000,smoke,Low,6.17,0.0
16:40:01,-2.01999998,0.23,9.68000031,-2.31551147,0.16217327,9.67838478,3.07287025,-0.20507619,-0.02617994,0,19,312,19,312,29,19.0456311,72.8934683,0,Local connecting road,33.02,0,4000,smoke,Low,6.17,0.0
16:40:01,-1.90999997,0.44,9.55000019,-2.23490834,0.16167405,9.66893291,3.07505202,-0.20071286,-0.03708825,0,19,312,19,312,29,19.0456311,72.8934683,0,Local connecting road,33.02,0,4000,smoke,Low,6.17,0.0
16:40:01,-1.96000004,0.27000001,9.68999958,-2.32279229,0.15641405,9.69585228,3.07177949,-0.20507619,-0.02399828,0,19,312,19,312,29,19.0456311,72.8934683,0,Local connecting road,33.02,0,4000,smoke,Low,6.17,0.0
16:40:02,-1.85000002,0.5,9.59000015,-2.12977839,0.16708562,9.64705944,3.07614279,-0.19525871,-0.0425424,0,19,312,19,312,29,19.0456311,72.8934683,0,Local connecting road,33.02,0,4000,smoke,Low,6.17,0.0
16:40:02,-2.06999993,0.28,9.39000034,-2.12298822,0.17279145,9.64009857,3.07832456,-0.19634955,-0.04363323,0,19,312,19,312,29,19.0456311,72.8934683,0,Local connecting road,33.02,0,4000,smoke,Low,6.17,0.0
16:40:02,-1.95000005,0.43000001,9.60999966,-2.11531973,0.17122853,9.64270306,3.07723355,-0.19416788,-0.04690572,0,19,312,19,312,29,19.0456311,72.8934683,0,Local connecting road,33.02,0,4000,smoke,Low,6.17,0.0
16:40:02,-1.74000001,0.61000001,9.59000015,-2.107162,0.15402806,9.66897488,3.07396126,-0.19089539,-0.05126905,0,19,312,19,312,29,19.0456311,72.8934683,0,Local connecting road,33.02,0,4000,smoke,Low,6.17,0.0
16:40:02,-2.00999999,0.47,9.78999996,-2.10715508,0.13097252,9.66308689,3.07614279,-0.18871373,-0.05235988,0,19,312,19,312,29,19.0456311,72.8934683,0,Local connecting road,33.02,0,4000,smoke,Low,6.17,0.0
16:40:02,-1.92999995,0.46000001,9.47000027,-2.10226274,0.12967859,9.65924644,3.07505202,-0.19089539,-0.05345071,0,19,312,19,312,29,19.0456311,72.8934683,0,Local connecting road,33.02,0,4000,smoke,Low,6.17,0.0
16:40:02,-1.82000005,0.52999997,9.75,-2.11244369,0.16032249,9.6571207,3.07505202,-0.19198622,-0.04908739,0,19,312,19,312,29,19.0456311,72.8934683,0,Local connecting road,33.02,0,4000,smoke,Low,6.17,0.0
16:40:03,-1.79999995,0.47999999,9.65999985,-2.22451353,0.24383789,9.59533119,3.07832456,-0.1985312,-0.0283616,0,19,312,19,312,29,19.0456311,72.8934683,0,Local connecting road,33.02,0,4000,smoke,Low,6.17,0.0
16:40:03,-1.94000006,0.19,9.65999985,-2.21235251,0.24667943,9.58139133,3.08268785,-0.19744037,-0.02727077,0,19,312,19,312,29,19.0456311,72.8934683,0,Local connecting road,33.02,0,4000,smoke,Low,6.17,0.0
16:40:03,-2.04999995,0.23999999,9.35999966,-2.22041082,0.25846115,9.57041168,3.08268785,-0.1985312,-0.02727077,0,19,312,19,312,29,19.0456311,72.8934683,0,Local connecting road,33.02,0,4000,smoke,Low,6.17,0.0
16:40:03,-2.03999996,0.15000001,9.68999958,-2.21442699,0.23526827,9.60713673,3.07941532,-0.19744037,-0.02945243,0,19,312,19,312,29,19.0456311,72.8934683,0,Local connecting road,33.02,0,4000,smoke,Low,6.17,0.0
16:40:03,-1.98000002,0.40000001,9.68999958,-2.13658285,0.1723564,9.63995552,3.07614279,-0.19416788,-0.04145157,0,19,312,19,312,29,19.0456311,72.8934683,0,Local connecting road,33.02,0,4000,smoke,Low,6.17,0.0
16:40:03,-1.95000005,0.31,9.57999992,-2.17192507,0.19539127,9.62370777,3.07614279,-0.19416788,-0.03708825,0,19,312,19,312,29,19.0456311,72.8934683,0,Local connecting road,33.02,0,4000,smoke,Low,6.17,0.0
16:40:03,-1.88999999,0.31,9.65999985,-2.14832926,0.17742732,9.63459969,3.07505202,-0.19307704,-0.04036074,0,19,312,19,312,29,19.0456311,72.8934683,0,Local connecting road,33.02,0,4000,smoke,Low,6.17,0.0
16:40:03,-1.92999995,0.38,9.56999969,-2.13735127,0.17222176,9.64345646,3.07614279,-0.19416788,-0.04145157,0,19,312,19,312,29,19.0456311,72.8934683,0,Local connecting road,33.02,0,4000,smoke,Low,6.17,0.0
16:40:03,-1.98000002,0.23999999,9.65999985,-2.20361161,0.22200844,9.60544586,3.07832456,-0.19634955,-0.03272492,0,19,312,19,312,29,19.0456311,72.8934683,0,Local connecting road,33.02,0,4000,smoke,Low,6.17,0.0
16:40:04,-1.90999997,0.30000001,9.61999989,-2.18202996,0.28602839,9.59327984,3.08050609,-0.20507619,-0.02727077,0,19,312,19,312,29,19.0456311,72.8934683,0,Local connecting road,33.02,0,4000,smoke,Low,6.17,0.0
16:40:04,-2.0,0.25999999,9.53999996,-2.17220807,0.29810494,9.58907318,3.08159685,-0.20616701,-0.02945243,0,19,312,19,312,29,19.0456311,72.8934683,0,Local connecting road,33.02,0,4000,smoke,Low,6.17,0.0
16:40:04,-2.07999992,0.25,9.76000023,-2.18259764,0.29575759,9.57632446,3.08268785,-0.20616701,-0.0283616,0,19,312,19,312,29,19.0456311,72.8934683,0,Local connecting road,33.02,0,4000,smoke,Low,6.17,0.0
16:40:04,-2.1099999,0.19,9.42000008,-2.18156648,0.30044141,9.57257557,3.08268785,-0.20725785,-0.02727077,0,19,312,19,312,29,19.0456311,72.8934683,0,Local connecting road,33.02,0,4000,smoke,Low,6.17,0.0
16:40:04,-2.04999995,0.28,9.85000038,-2.18490195,0.29019532,9.57881451,3.08159685,-0.20398536,-0.0283616,0,19,312,19,312,29,19.0456311,72.8934683,0,Local connecting road,33.02,0,4000,smoke,Low,6.17,0.0
16:40:04,-2.00999999,0.23,9.59000015,-2.19383168,0.28761825,9.58335972,3.08159685,-0.20507619,-0.02617994,0,19,312,19,312,29,19.0456311,72.8934683,0,Local connecting road,33.02,0,4000,smoke,Low,6.17,0.0
16:40:04,-2.01999998,0.25,9.72999954,-2.22770214,0.2957373,9.56285286,3.08377862,-0.20398536,-0.02181662,0,19,312,19,312,29,19.0456311,72.8934683,0,Local connecting road,33.02,0,4000,smoke,Low,6.17,0.0
16:40:04,-2.18000007,0.15000001,9.40999985,-2.21511054,0.30017257,9.55979538,3.08486938,-0.20725785,-0.02181662,0,19,312,19,312,29,19.0456311,72.8934683,0,Local connecting road,33.02,0,4000,smoke,Low,6.17,0.0
16:40:04,-2.0,0.14,9.63000011,-2.22381592,0.27854571,9.58006668,3.08159685,-0.2018037,-0.02290745,0,19,312,19,312,29,19.0456311,72.8934683,0,Local connecting road,33.02,0,4000,smoke,Low,6.17,0.0
16:40:04,-1.89999998,0.27000001,9.60000038,-2.21713352,0.25824818,9.59279728,3.08050609,-0.1985312,-0.02508911,0,19,312,19,312,29,19.0456311,72.8934683,0,Local connecting road,33.02,0,4000,smoke,Low,6.17,0.0
16:40:04,-1.94000006,0.19,9.71000004,-2.21548057,0.24738334,9.58702564,3.08268785,-0.19744037,-0.02617994,0,19,312,19,312,29,19.0456311,72.8934683,0,Local connecting road,33.02,0,4000,smoke,Low,6.17,0.0
16:40:04,-2.04999995,0.19,9.56000042,-2.20445824,0.28816912,9.5757246,3.08377862,-0.20616701,-0.02399828,0,19,312,19,312,29,19.0456311,72.8934683,0,Local connecting road,33.02,0,4000,smoke,Low,6.17,0.0
16:40:05,-2.05999994,0.23,9.55000019,-2.19046688,0.29694781,9.58306503,3.07941532,-0.20507619,-0.02290745,0,19,312,19,312,29,19.0456311,72.8934683,0,Local connecting road,33.02,0,4000,smoke,Low,6.17,0.0
16:40:05,-1.94000006,0.30000001,9.51000023,-2.17875457,0.2789391,9.59311485,3.07832456,-0.20398536,-0.02508911,0,19,312,19,312,29,19.0456311,72.8934683,0,Local connecting road,33.02,0,4000,smoke,Low,6.17,0.0
16:40:05,-2.03999996,0.25,9.68000031,-2.17550206,0.27725929,9.5954361,3.07832456,-0.20289452,-0.02617994,0,19,312,19,312,29,19.0456311,72.8934683,0,Local connecting road,33.02,0,4000,smoke,Low,6.17,0.0
16:40:05,-2.04999995,0.17,9.55000019,-2.16326737,0.26719061,9.59121037,3.07832456,-0.20289452,-0.02727077,0,19,312,19,312,29,19.0456311,72.8934683,0,Local connecting road,33.02,0,4000,smoke,Low,6.17,0.0
16:40:05,-1.98000002,0.31999999,9.52999973,-2.15745401,0.2729241,9.59455109,3.07723355,-0.2018037,-0.0283616,0,19,312,19,312,29,19.0456311,72.8934683,0,Local connecting road,33.02,0,4000,smoke,Low,6.17,0.0
16:40:05,-2.0,0.34,9.48999977,-2.15780663,0.28238609,9.59206009,3.07832456,-0.20289452,-0.0283616,0,19,312,19,312,29,19.0456311,72.8934683,0,Local connecting road,33.02,0,4000,smoke,Low,6.17,0.0
16:40:05,-2.0999999,0.14,9.81999969,-2.1666522,0.28808531,9.58226776,3.07941532,-0.20289452,-0.0283616,0,19,312,19,312,29,19.0456311,72.8934683,0,Local connecting road,33.02,0,4000,smoke,Low,6.17,0.0
16:40:05,-2.04999995,0.31,9.48999977,-2.16051245,0.29985747,9.58116627,3.07941532,-0.20289452,-0.02945243,0,19,312,19,312,29,19.0456311,72.8934683,0,Local connecting road,33.02,0,4000,smoke,Low,6.17,0.0
16:40:05,-1.95000005,0.38999999,9.64999962,-2.16526771,0.28090048,9.58177662,3.07832456,-0.2018037,-0.02945243,0,19,312,19,312,29,19.0456311,72.8934683,0,Local connecting road,33.02,0,4000,smoke,Low,6.17,0.0
16:40:05,-2.00999999,0.25,9.72000027,-2.15607548,0.27071336,9.5946188,3.07723355,-0.2018037,-0.0283616,0,19,312,19,312,29,19.0456311,72.8934683,0,Local connecting road,33.02,0,4000,smoke,Low,6.17,0.0
16:40:05,-2.1099999,0.22,9.64000034,-2.14405465,0.26681015,9.58659172,3.07941532,-0.2018037,-0.03163409,0,19,312,19,312,29,19.0456311,72.8934683,0,Local connecting road,33.02,0,4000,smoke,Low,6.17,0.0
16:40:05,-2.03999996,0.30000001,9.47999954,-2.1316247,0.26901546,9.58237648,3.07941532,-0.20071286,-0.03381575,0,19,312,19,312,29,19.0456311,72.8934683,0,Local connecting road,33.02,0,4000,smoke,Low,6.17,0.0
16:40:05,-2.00999999,0.34999999,9.65999985,-2.12724447,0.27088311,9.59696579,3.07832456,-0.20071286,-0.03381575,0,19,312,19,312,29,19.0456311,72.8934683,0,Local connecting road,33.02,0,4000,smoke,Low,6.17,0.0
16:40:05,-1.85000002,0.56999999,9.51000023,-2.12463713,0.27676848,9.61192894,3.07723355,-0.20289452,-0.03381575,0,19,312,19,312,29,19.0456311,72.8934683,0,Local connecting road,33.02,0,4000,smoke,Low,6.17,0.0
16:40:05,-2.19000006,0.23,9.43999958,-2.13711691,0.28203416,9.59650898,3.08159685,-0.20616701,-0.03054326,0,19,312,19,312,29,19.0456311,72.8934683,0,Local connecting road,33.02,0,4000,smoke,Low,6.17,0.0
16:40:05,-2.11999989,0.31,9.57999992,-2.1416626,0.29997107,9.58032799,3.08268785,-0.20834868,-0.03054326,0,19,312,19,312,29,19.0456311,72.8934683,0,Local connecting road,33.02,0,4000,smoke,Low,6.17,0.0
16:40:05,-2.07999992,0.33000001,9.47000027,-2.14460468,0.3116414,9.57345963,3.08268785,-0.20943952,-0.02945243,0,19,312,19,312,29,19.0456311,72.8934683,0,Local connecting road,33.02,0,4000,smoke,Low,6.17,0.0
16:40:05,-2.00999999,0.37,9.61999989,-2.15654826,0.31064174,9.57994652,3.08050609,-0.20834868,-0.02945243,0,19,312,19,312,29,19.0456311,72.8934683,0,Local connecting road,33.02,0,4000,smoke,Low,6.17,0.0
16:40:05,-1.88,0.46000001,9.65999985,-2.16391397,0.30318034,9.59600449,3.07941532,-0.20616701,-0.03054326,0,19,312,19,312,29,19.0456311,72.8934683,0,Local connecting road,33.02,0,4000,smoke,Low,6.17,0.0
16:40:05,-1.90999997,0.43000001,9.40999985,-2.15591097,0.27742395,9.59163475,3.07832456,-0.2018037,-0.03163409,0,19,312,19,312,29,19.0456311,72.8934683,0,Local connecting road,33.02,0,4000,smoke,Low,6.17,0.0
16:40:06,-2.08999991,0.16,9.56999969,-2.2193253,0.26877093,9.58774471,3.07941532,-0.21053034,-0.01090831,0,19,312,19,312,29,19.0456311,72.8934683,0,Local connecting road,33.02,0,4000,smoke,Low,6.17,0.0
16:40:06,-2.11999989,0.13,9.60000038,-2.22883964,0.27661574,9.58623219,3.07941532,-0.21162117,-0.01090831,0,19,312,19,312,29,19.0456311,72.8934683,0,Local connecting road,33.02,0,4000,smoke,Low,6.17,0.0
16:40:06,-2.1500001,0.06,9.43000031,-2.2273109,0.29085788,9.58157635,3.08050609,-0.212712,-0.01090831,0,19,312,19,312,29,19.0456311,72.8934683,0,Local connecting road,33.02,0,4000,smoke,Low,6.17,0.0
16:40:06,-2.08999991,0.19,9.72999954,-2.22638869,0.28806925,9.57716942,3.08050609,-0.21162117,-0.01090831,0,19,312,19,312,29,19.0456311,72.8934683,0,Local connecting road,33.02,0,4000,smoke,Low,6.17,0.0
16:40:06,-2.1099999,0.05,9.64000034,-2.22167206,0.30319566,9.58405018,3.08050609,-0.21162117,-0.01199914,0,19,312,19,312,29,19.0456311,72.8934683,0,Local connecting road,33.02,0,4000,smoke,Low,6.17,0.0
16:40:06,-2.0999999,0.11,9.65999985,-2.21129751,0.3159712,9.5769453,3.08050609,-0.20834868,-0.01745329,0,19,312,19,312,29,19.0456311,72.8934683,0,Local connecting road,33.02,0,4000,smoke,Low,6.17,0.0
16:40:06,-2.1500001,0.06,9.65999985,-2.22784543,0.3189545,9.57920551,3.08050609,-0.21053034,-0.0141808,0,19,312,19,312,29,19.0456311,72.8934683,0,Local connecting road,33.02,0,4000,smoke,Low,6.17,0.0
16:40:06,-2.0999999,0.11,9.53999996,-2.22193408,0.31736428,9.57130623,3.08050609,-0.20943952,-0.01636246,0,19,312,19,312,29,19.0456311,72.8934683,0,Local connecting road,33.02,0,4000,smoke,Low,6.17,0.0
16:40:06,-1.97000003,0.23,9.59000015,-2.196069,0.30517468,9.58650017,3.07941532,-0.20725785,-0.01963495,0,19,312,19,312,29,19.0456311,72.8934683,0,Local connecting road,33.02,0,4000,smoke,Low,6.17,0.0
16:40:06,-2.11999989,0.11,9.60000038,-2.20130754,0.30545884,9.58830357,3.07941532,-0.20616701,-0.02072578,0,19,312,19,312,29,19.0456311,72.8934683,0,Local connecting road,33.02,0,4000,smoke,Low,6.17,0.0
16:40:06,-2.0999999,0.13,9.64000034,-2.22957611,0.3121129,9.58103371,3.08050609,-0.21162117,-0.01308997,0,19,312,19,312,29,19.0456311,72.8934683,0,Local connecting road,33.02,0,4000,smoke,Low,6.17,0.0
16:40:07,-2.1500001,0.12,9.56999969,-2.141752,0.22465904,9.58323097,3.08050609,-0.21053034,-0.01527163,0,19,312,19,312,29,19.0456311,72.8934683,0,Local connecting road,33.02,0,4000,smoke,Low,6.17,0.0
16:40:07,-1.98000002,0.30000001,9.63000011,-2.07932401,0.19337383,9.60415173,3.07832456,-0.20616701,-0.02399828,0,19,312,19,312,29,19.0456311,72.8934683,0,Local connecting road,33.02,0,4000,smoke,Low,6.17,0.0
16:40:07,-2.06999993,0.20999999,9.64999962,-2.10385108,0.19557279,9.60549927,3.07832456,-0.20834868,-0.02072578,0,19,312,19,312,29,19.0456311,72.8934683,0,Local connecting road,33.02,0,4000,smoke,Low,6.17,0.0
16:40:07,-2.19000006,0.11,9.77999973,-2.15970874,0.23429494,9.58037567,3.08050609,-0.21053034,-0.0141808,0,19,312,19,312,29,19.0456311,72.8934683,0,Local connecting road,33.02,0,4000,smoke,Low,6.17,0.0
16:40:07,-2.1099999,0.18000001,9.63000011,-2.12641692,0.21090336,9.59396648,3.07941532,-0.21053034,-0.01745329,0,19,312,19,312,29,19.0456311,72.8934683,0,Local connecting road,33.02,0,4000,smoke,Low,6.17,0.0
16:40:07,-2.1400001,0.15000001,9.63000011,-2.18428874,0.23746844,9.59816456,3.07832456,-0.21053034,-0.01199914,0,19,312,19,312,29,19.0456311,72.8934683,0,Local connecting road,33.02,0,4000,smoke,Low,6.17,0.0
16:40:07,-2.22000003,-0.01,9.52999973,-2.19956756,0.2455035,9.59564018,3.07941532,-0.21162117,-0.01090831,0,19,312,19,312,29,19.0456311,72.8934683,0,Local connecting road,33.02,0,4000,smoke,Low,6.17,0.0
16:40:07,-2.03999996,0.18000001,9.52999973,-2.17221546,0.24183157,9.59067631,3.07832456,-0.21053034,-0.01308997,0,19,312,19,312,29,19.0456311,72.8934683,0,Local connecting road,33.02,0,4000,smoke,Low,6.17,0.0
16:40:07,-2.0999999,0.1,9.60000038,-2.20477557,0.25509286,9.58760452,3.07941532,-0.21053034,-0.00981748,0,19,312,19,312,29,19.0456311,72.8934683,0,Local connecting road,33.02,0,4000,smoke,Low,6.17,0.0
16:40:07,-2.05999994,0.14,9.51000023,-2.20878887,0.25700802,9.59047699,3.07941532,-0.21053034,-0.01090831,0,19,312,19,312,29,19.0456311,72.8934683,0,Local connecting road,33.02,0,4000,smoke,Low,6.17,0.0
16:40:08,-1.97000003,0.38999999,9.64999962,-1.96963263,0.12535283,9.6288681,3.07723355,-0.1985312,-0.03926991,0,19,312,19,312,29,19.0456303,72.893468,0,Local connecting road,33.02,0,4000,smoke,Low,6.17,0.0
16:40:08,-1.95000005,0.38,9.64999962,-1.9740001,0.13182688,9.62718678,3.07832456,-0.1985312,-0.03817908,0,19,312,19,312,29,19.0456303,72.893468,0,Local connecting road,33.02,0,4000,smoke,Low,6.17,0.0
16:40:08,-2.0999999,0.28999999,9.56999969,-1.99511492,0.14176212,9.60797119,3.07941532,-0.20071286,-0.03490658,0,19,312,19,312,29,19.0456303,72.893468,0,Local connecting road,33.02,0,4000,smoke,Low,6.17,0.0
16:40:08,-1.97000003,0.36000001,9.68000031,-2.00609946,0.15686186,9.60874653,3.07941532,-0.2018037,-0.03272492,0,19,312,19,312,29,19.0456303,72.893468,0,Local connecting road,33.02,0,4000,smoke,Low,6.17,0.0
16:40:08,-2.16000009,0.2,9.63000011,-2.04132509,0.17263131,9.60654831,3.07941532,-0.20507619,-0.0283616,0,19,312,19,312,29,19.0456303,72.893468,0,Local connecting road,33.02,0,4000,smoke,Low,6.17,0.0
16:40:08,-2.0,0.33000001,9.68000031,-2.04015326,0.16644776,9.60669518,3.07941532,-0.20398536,-0.02727077,0,19,312,19,312,29,19.0456303,72.893468,0,Local connecting road,33.02,0,4000,smoke,Low,6.17,0.0
16:40:08,-2.02999997,0.27000001,9.56999969,-2.04972267,0.16998497,9.60832405,3.07941532,-0.20398536,-0.02617994,0,19,312,19,312,29,19.0456303,72.893468,0,Local connecting road,33.02,0,4000,smoke,Low,6.17,0.0
16:40:08,-2.06999993,0.15000001,9.63000011,-2.06137514,0.17106885,9.60160637,3.07941532,-0.20398536,-0.02508911,0,19,312,19,312,29,19.0456303,72.893468,0,Local connecting road,33.02,0,4000,smoke,Low,6.17,0.0
16:40:08,-1.96000004,0.38,9.61999989,-2.02683616,0.16146618,9.61416721,3.07832456,-0.20398536,-0.03054326,0,19,312,19,312,29,19.0456303,72.893468,0,Local connecting road,33.02,0,4000,smoke,Low,6.17,0.0
16:40:09,-1.92999995,0.47,9.52000046,-1.90170014,0.09595139,9.67628384,3.07287025,-0.18544123,-0.05235988,0,19,312,19,312,29,19.0456311,72.8934683,0,Local connecting road,33.02,0,4000,smoke,Low,6.17,0.0
16:40:09,-1.97000003,0.51999998,9.69999981,-1.92572868,0.10994486,9.6792078,3.07287025,-0.1843504,-0.05017821,0,19,312,19,312,29,19.0456311,72.8934683,0,Local connecting road,33.02,0,4000,smoke,Low,6.17,0.0
16:40:09,-1.90999997,0.55000001,9.57999992,-1.90112257,0.09519275,9.66384792,3.07505202,-0.18871373,-0.05235988,0,19,312,19,312,29,19.0456311,72.8934683,0,Local connecting road,33.02,0,4000,smoke,Low,6.17,0.0
16:40:09,-1.98000002,0.54000002,9.56999969,-1.93395805,0.1318607,9.63974094,3.07832456,-0.19525871,-0.04581489,0,19,312,19,312,29,19.0456311,72.8934683,0,Local connecting road,33.02,0,4000,smoke,Low,6.17,0.0
16:40:09,-1.98000002,0.44999999,9.56999969,-1.94614339,0.12853134,9.6392889,3.07832456,-0.19744037,-0.0425424,0,19,312,19,312,29,19.0456311,72.8934683,0,Local connecting road,33.02,0,4000,smoke,Low,6.17,0.0
16:40:09,-1.90999997,0.55000001,9.63000011,-1.96170247,0.13384576,9.63195324,3.07723355,-0.19744037,-0.04145157,0,19,312,19,312,29,19.0456311,72.8934683,0,Local connecting road,33.02,0,4000,smoke,Low,6.17,0.0
16:40:09,-2.00999999,0.47,9.47000027,-1.91281641,0.11841098,9.64430904,3.07723355,-0.19307704,-0.04908739,0,19,312,19,312,29,19.0456311,72.8934683,0,Local connecting road,33.02,0,4000,smoke,Low,6.17,0.0
16:40:10,-2.01999998,0.2,9.60999966,-2.00733018,0.19352612,9.65953922,3.07614279,-0.19416788,-0.03381575,0,19,312,19,312,29,19.0456303,72.893468,0,Local connecting road,33.02,0,4000,smoke,Low,6.17,0.0
16:40:10,-1.91999996,0.31,9.39999962,-2.06027746,0.3538864,9.60432148,3.07723355,-0.20834868,-0.0283616,0,19,312,19,312,29,19.0456303,72.893468,0,Local connecting road,33.02,0,4000,smoke,Low,6.17,0.0
16:40:10,-1.90999997,0.44999999,9.40999985,-2.06291103,0.33530053,9.6162281,3.07505202,-0.20507619,-0.02945243,0,19,312,19,312,29,19.0456303,72.893468,0,Local connecting road,33.02,0,4000,smoke,Low,6.17,0.0
16:40:10,-1.96000004,0.37,9.53999996,-2.0566566,0.32358474,9.63106155,3.07723355,-0.20507619,-0.0283616,0,19,312,19,312,29,19.0456303,72.893468,0,Local connecting road,33.02,0,4000,smoke,Low,6.17,0.0
16:40:10,-2.17000008,0.23,9.67000008,-2.06550407,0.3213875,9.60604477,3.07941532,-0.20398536,-0.02945243,0,19,312,19,312,29,19.0456303,72.893468,0,Local connecting road,33.02,0,4000,smoke,Low,6.17,0.0
16:40:10,-1.87,0.56999999,9.5,-2.0452466,0.31262755,9.62973976,3.07723355,-0.20398536,-0.03054326,0,19,312,19,312,29,19.0456303,72.893468,0,Local connecting road,33.02,0,4000,smoke,Low,6.17,0.0
16:40:10,-2.30999994,0.08,9.44999981,-2.06069803,0.32675007,9.60926247,3.07941532,-0.20507619,-0.0283616,0,19,312,19,312,29,19.0456303,72.893468,0,Local connecting road,33.02,0,4000,smoke,Low,6.17,0.0
16:40:10,-1.75,0.67000002,9.68000031,-2.03936028,0.29241079,9.63876247,3.07723355,-0.20398536,-0.03054326,0,19,312,19,312,29,19.0456303,72.893468,0,Local connecting road,33.02,0,4000,smoke,Low,6.17,0.0
16:40:10,-2.3900001,-0.04,8.94999981,-2.03901553,0.2747049,9.60167122,3.08377862,-0.20616701,-0.03054326,0,19,312,19,312,29,19.0456303,72.893468,0,Local connecting road,33.02,0,4000,smoke,Low,6.17,0.0
16:40:10,-1.96000004,0.47,9.97000027,-2.01685262,0.25612745,9.60809517,3.07941532,-0.20071286,-0.03381575,0,19,312,19,312,29,19.0456303,72.893468,0,Local connecting road,33.02,0,4000,smoke,Low,6.17,0.0
16:40:10,-2.16000009,0.19,9.38000011,-2.00238776,0.23926271,9.62383461,3.07832456,-0.19962204,-0.03381575,0,19,312,19,312,29,19.0456303,72.893468,0,Local connecting road,33.02,0,4000,smoke,Low,6.17,0.0
16:40:10,-1.65999997,0.70999998,9.72999954,-1.99854612,0.22651808,9.64318562,3.07396126,-0.19525871,-0.03599742,0,19,312,19,312,29,19.0456303,72.893468,0,Local connecting road,33.02,0,4000,smoke,Low,6.17,0.0
16:40:10,-2.03999996,0.2,9.82999992,-2.0064466,0.20589399,9.64492512,3.07614279,-0.19307704,-0.03490658,0,19,312,19,312,29,19.0456303,72.893468,0,Local connecting road,33.02,0,4000,smoke,Low,6.17,0.0
16:40:10,-2.0999999,0.34999999,9.76000023,-2.05814028,0.34478202,9.61849117,3.07723355,-0.20507619,-0.0283616,0,19,312,19,312,29,19.0456303,72.893468,0,Local connecting road,33.02,0,4000,smoke,Low,6.17,0.0
16:40:10,-1.90999997,0.31,9.67000008,-2.0059433,0.20597121,9.66462898,3.07287025,-0.19198622,-0.03490658,0,19,312,19,312,29,19.0456303,72.893468,0,Local connecting road,33.02,0,4000,smoke,Low,6.17,0.0
16:40:10,-1.92999995,0.28999999,9.73999977,-2.00013685,0.19601429,9.66552353,3.07396126,-0.19198622,-0.03490658,0,19,312,19,312,29,19.0456303,72.893468,0,Local connecting road,33.02,0,4000,smoke,Low,6.17,0.0
16:40:10,-1.80999994,0.58999997,9.5,-1.94423914,0.15445845,9.67501068,3.07177949,-0.18871373,-0.04799655,0,19,312,19,312,29,19.0456303,72.893468,0,Local connecting road,33.02,0,4000,smoke,Low,6.17,0.0
16:40:10,-1.76999998,0.60000002,9.56000042,-1.96096683,0.17806928,9.65678501,3.07287025,-0.19198622,-0.04472406,0,19,312,19,312,29,19.0456303,72.893468,0,Local connecting road,33.02,0,4000,smoke,Low,6.17,0.0
16:40:10,-1.99000001,0.37,9.57999992,-1.98150826,0.18662524,9.65931797,3.07614279,-0.19634955,-0.03926991,0,19,312,19,312,29,19.0456303,72.893468,0,Local connecting road,33.02,0,4000,smoke,Low,6.17,0.0
16:40:10,-1.95000005,0.33000001,9.52999973,-1.99741554,0.18704273,9.66040707,3.07505202,-0.19525871,-0.03926991,0,19,312,19,312,29,19.0456303,72.893468,0,Local connecting road,33.02,0,4000,smoke,Low,6.17,0.0
16:40:10,-2.21000004,0.20999999,9.56999969,-1.97758496,0.1885079,9.64218712,3.07723355,-0.19416788,-0.04036074,0,19,312,19,312,29,19.0456303,72.893468,0,Local connecting road,33.02,0,4000,smoke,Low,6.17,0.0
16:40:10,-1.88,0.43000001,9.52000046,-2.01580811,0.19897908,9.66350746,3.07396126,-0.19307704,-0.03708825,0,19,312,19,312,29,19.0456303,72.893468,0,Local connecting road,33.02,0,4000,smoke,Low,6.17,0.0
16:40:10,-1.88,0.44,9.75,-2.01247954,0.208087,9.65849972,3.07396126,-0.19307704,-0.03599742,0,19,312,19,312,29,19.0456303,72.893468,0,Local connecting road,33.02,0,4000,smoke,Low,6.17,0.0
16:40:10,-2.06999993,0.19,9.52999973,-2.01117992,0.19670026,9.65102959,3.07614279,-0.19416788,-0.03490658,0,19,312,19,312,29,19.0456303,72.893468,0,Local connecting road,33.02,0,4000,smoke,Low,6.17,0.0
16:40:10,-1.92999995,0.37,9.73999977,-2.00588131,0.19465375,9.66383362,3.07505202,-0.19198622,-0.03490658,0,19,312,19,312,29,19.0456303,72.893468,0,Local connecting road,33.02,0,4000,smoke,Low,6.17,0.0
16:40:10,-1.91999996,0.40000001,9.64999962,-2.00477624,0.19447318,9.67764473,3.07396126,-0.19307704,-0.03490658,0,19,312,19,312,29,19.0456303,72.893468,0,Local connecting road,33.02,0,4000,smoke,Low,6.17,0.0
16:40:10,-1.94000006,0.33000001,9.72000027,-2.00545478,0.19051437,9.66956139,3.07505202,-0.19307704,-0.03708825,0,19,312,19,312,29,19.0456303,72.893468,0,Local connecting road,33.02,0,4000,smoke,Low,6.17,0.0
16:40:12,-2.23000002,0.12,9.35000038,-2.04020429,0.24686497,9.57883644,3.08050609,-0.21489367,-0.02181662,0,19,312,19,312,29,19.0456303,72.893468,0,Local connecting road,33.02,0,4000,smoke,Low,6.17,0.0
16:40:12,-1.89999998,0.46000001,9.86999989,-1.96144259,0.17812267,9.62591076,3.07505202,-0.20507619,-0.03381575,0,19,312,19,312,29,19.0456303,72.893468,0,Local connecting road,33.02,0,4000,smoke,Low,6.17,0.0
16:40:12,-2.02999997,0.38999999,9.68000031,-1.99894655,0.19862008,9.62405396,3.07614279,-0.20834868,-0.0283616,0,19,312,19,312,29,19.0456303,72.893468,0,Local connecting road,33.02,0,4000,smoke,Low,6.17,0.0
16:40:12,-2.25,0.15000001,9.39999962,-2.02581286,0.22721437,9.58916187,3.08050609,-0.212712,-0.02508911,0,19,312,19,312,29,19.0456303,72.893468,0,Local connecting road,33.02,0,4000,smoke,Low,6.17,0.0
16:40:12,-2.26999998,0.20999999,9.75,-2.03561258,0.23816517,9.57552242,3.08050609,-0.212712,-0.02290745,0,19,312,19,312,29,19.0456303,72.893468,0,Local connecting road,33.02,0,4000,smoke,Low,6.17,0.0
16:40:12,-2.07999992,0.06,9.39999962,-2.0457058,0.29007906,9.57475662,3.08050609,-0.21598449,-0.02181662,0,19,312,19,312,29,19.0456303,72.893468,0,Local connecting road,33.02,0,4000,smoke,Low,6.17,0.0
16:40:12,-1.95000005,0.36000001,9.57999992,-2.09631586,0.33350587,9.59686089,3.07723355,-0.21598449,-0.01636246,0,19,312,19,312,29,19.0456303,72.893468,0,Local connecting road,33.02,0,4000,smoke,Low,6.17,0.0
16:40:12,-2.23000002,0.07,9.60999966,-2.08980203,0.30618575,9.57691097,3.07941532,-0.21489367,-0.01745329,0,19,312,19,312,29,19.0456303,72.893468,0,Local connecting road,33.02,0,4000,smoke,Low,6.17,0.0
16:40:12,-2.06999993,0.25,9.65999985,-2.11680198,0.35234016,9.59657955,3.07941532,-0.21598449,-0.0141808,0,19,312,19,312,29,19.0456303,72.893468,0,Local connecting road,33.02,0,4000,smoke,Low,6.17,0.0
16:40:12,-2.3499999,0.0,9.68000031,-2.1290071,0.34630373,9.5746603,3.08159685,-0.21380283,-0.0141808,0,19,312,19,312,29,19.0456303,72.893468,0,Local connecting road,33.02,0,4000,smoke,Low,6.17,0.0
16:40:12,-2.19000006,0.14,9.72999954,-2.10574698,0.34899616,9.57376003,3.08050609,-0.20943952,-0.02072578,0,19,312,19,312,29,19.0456303,72.893468,0,Local connecting road,33.02,0,4000,smoke,Low,6.17,0.0
16:40:12,-2.23000002,0.25,9.86999989,-2.06688094,0.28852454,9.58644772,3.08050609,-0.21380283,-0.01963495,0,19,312,19,312,29,19.0456303,72.893468,0,Local connecting road,33.02,0,4000,smoke,Low,6.17,0.0
16:40:13,-1.83000004,-0.22,9.64999962,-2.36820865,-0.04150302,9.12936878,3.14595604,-0.17889625,0.03599742,0,19,312,19,312,29,19.0456303,72.893468,0,Local connecting road,33.02,0,4000,smoke,Low,6.17,0.0
16:40:13,-4.21000004,-3.03999996,6.51000023,-3.06157589,1.39610124,8.33785915,3.28121901,-0.38069993,0.19525871,0,19,312,19,312,29,19.0456303,72.893468,0,Local connecting road,33.02,0,4000,smoke,Low,6.17,0.0
16:40:13,-2.43000007,-0.98000002,9.67000008,-3.09813857,1.09663379,8.4901619,3.23213172,-0.28470683,0.141808,0,19,312,19,312,29,19.0456303,72.893468,0,Local connecting road,33.02,0,4000,smoke,Low,6.17,0.0
16:40:13,-1.21000004,0.37,10.89999962,-2.52802396,0.13463904,8.9485836,3.17649913,-0.19198622,0.06654068,0,19,312,19,312,29,19.0456303,72.893468,0,Local connecting road,33.02,0,4000,smoke,Low,6.17,1.0
16:40:13,-1.73000002,-0.20999999,9.88000011,-2.43179727,-0.03953924,9.04563427,3.1645,-0.17671458,0.04799655,0,19,312,19,312,29,19.0456303,72.893468,0,Local connecting road,33.02,0,4000,smoke,Low,6.17,0.0
16:40:13,-3.25999999,-1.88999999,6.94999981,-2.91915679,0.98554176,8.39891434,3.27685571,-0.36433747,0.16362461,0,19,312,19,312,29,19.0456303,72.893468,0,Local connecting road,33.02,0,4000,smoke,Low,6.17,0.0
16:40:13,-1.66999996,-0.49000001,10.26000023,-2.44611955,-0.05231045,9.04173183,3.15795517,-0.17016961,0.04363323,0,19,312,19,312,29,19.0456303,72.893468,0,Local connecting road,33.02,0,4000,smoke,Low,6.17,1.0
16:40:13,-1.71000004,-0.28,9.31000042,-2.32231736,0.00463977,9.15374374,3.14486504,-0.19416788,0.04363323,0,19,312,19,312,29,19.0456303,72.893468,0,Local connecting road,33.02,0,4000,smoke,Low,6.17,0.0
16:40:13,-2.1500001,-0.09,9.61999989,-2.32372379,0.31913656,9.06767273,3.14268351,-0.20943952,0.01963495,0,19,312,19,312,29,19.0456303,72.893468,0,Local connecting road,33.02,0,4000,smoke,Low,6.17,0.0
16:40:13,-2.3900001,-0.74000001,9.72000027,-2.47069001,0.20455228,9.01694298,3.1612277,-0.22143865,0.0567232,0,19,312,19,312,29,19.0456303,72.893468,0,Local connecting road,33.02,0,4000,smoke,Low,6.17,0.0
16:40:13,-2.70000005,-0.85000002,8.93999958,-2.43108678,0.32882884,9.00509453,3.15904593,-0.22907446,0.04472406,0,19,312,19,312,29,19.0456303,72.893468,0,Local connecting road,33.02,0,4000,smoke,Low,6.17,0.0
16:40:13,-1.94000006,0.0,9.68999958,-2.14664412,0.13748628,9.22702599,3.12413931,-0.19525871,-0.00218166,0,19,312,19,312,29,19.0456303,72.893468,0,Local connecting road,33.02,0,4000,smoke,Low,6.17,0.0
16:40:13,-1.65999997,0.94,9.21000004,-2.02711129,0.13154212,9.38007736,3.09686852,-0.19416788,-0.03163409,0,19,312,19,312,29,19.0456303,72.893468,0,Local connecting road,33.02,0,4000,smoke,Low,6.17,0.0
16:40:13,-2.00999999,0.38999999,9.18000031,-1.90147841,0.15441799,9.57479858,3.08159685,-0.19962204,-0.04363323,0,19,312,19,312,29,19.0456303,72.893468,0,Local connecting road,33.02,0,4000,smoke,Low,6.17,0.0
16:40:13,-1.72000003,0.52999997,9.52000046,-1.91863871,0.18148521,9.60848045,3.07723355,-0.20289452,-0.04145157,0,19,312,19,312,29,19.0456303,72.893468,0,Local connecting road,33.02,0,4000,smoke,Low,6.17,0.0
16:40:13,-1.90999997,-0.44999999,9.86999989,-2.4123137,0.11857374,9.11117935,3.15468264,-0.20834868,0.05563237,0,19,312,19,312,29,19.0456303,72.893468,0,Local connecting road,33.02,0,4000,smoke,Low,6.17,0.0
16:40:15,-2.41000009,-0.70999998,10.60999966,-2.61454821,-0.01154413,9.15591145,3.21795082,-0.24870943,0.10035643,0,19,312,19,312,29,19.0456303,72.893468,0,Local connecting road,33.02,0,4000,smoke,Low,6.17,1.0
16:40:15,-2.5,-0.83999997,9.34000015,-2.54794478,0.04232427,9.20614338,3.21358752,-0.26070857,0.09162979,0,19,312,19,312,29,19.0456303,72.893468,0,Local connecting road,33.02,0,4000,smoke,Low,6.17,1.0
16:40:15,-2.69000006,-0.99000001,9.13000011,-2.54037333,0.06087781,9.22973347,3.21358752,-0.27161688,0.09272061,0,19,312,19,312,29,19.0456303,72.893468,0,Local connecting road,33.02,0,4000,smoke,Low,6.17,0.0
16:40:15,-2.56999993,-0.63999999,9.44999981,-2.55811596,0.12587278,9.22862625,3.21140575,-0.27816185,0.09162979,0,19,312,19,312,29,19.0456303,72.893468,0,Local connecting road,33.02,0,4000,smoke,Low,6.17,0.0
16:40:15,-2.29999995,-0.23999999,9.93999958,-2.66075373,0.26004282,9.19997883,3.21358752,-0.29343349,0.10144726,0,19,312,19,312,29,19.0456303,72.893468,0,Local connecting road,33.02,0,4000,smoke,Low,6.17,0.0
16:40:15,-3.79999995,-1.92999995,8.40999985,-2.82747602,0.560467,9.07821655,3.23213172,-0.34579337,0.14835298,0,19,312,19,312,29,19.0456303,72.893468,0,Local connecting road,33.02,0,4000,smoke,Low,6.17,0.0
16:40:15,-3.20000005,-1.09000003,9.14999962,-2.83370161,0.51582021,9.0808773,3.23431325,-0.35451999,0.14071716,0,19,312,19,312,29,19.0456303,72.893468,0,Local connecting road,33.02,0,4000,smoke,Low,6.17,0.0
16:40:15,-3.33999991,-0.98000002,9.5,-2.74827766,0.43077883,9.12478447,3.23213172,-0.35015669,0.13308136,0,19,312,19,312,29,19.0456303,72.893468,0,Local connecting road,33.02,0,4000,smoke,Low,6.17,0.0
16:40:15,-3.33999991,-1.05999994,9.68999958,-2.67343926,0.1148074,9.22138977,3.22122335,-0.3152501,0.10253809,0,19,312,19,312,29,19.0456303,72.893468,0,Local connecting road,33.02,0,4000,smoke,Low,6.17,0.0
16:40:15,-3.28999996,-1.0,9.02000046,-2.657336,0.17503303,9.17620087,3.22340488,-0.32397676,0.10253809,0,19,312,19,312,29,19.0456303,72.893468,0,Local connecting road,33.02,0,4000,smoke,Low,6.17,0.0
16:40:15,-3.44000006,-1.28999996,10.11999989,-2.7500205,0.21288627,9.25528717,3.21904159,-0.32179508,0.10690141,0,19,312,19,312,29,19.0456303,72.893468,0,Local connecting road,33.02,0,4000,smoke,Low,6.17,0.0
16:40:15,-2.70000005,-0.46000001,8.81999969,-2.63325763,0.22270356,9.30966854,3.20922422,-0.33161256,0.09053896,0,19,312,19,312,29,19.0456303,72.893468,0,Local connecting road,33.02,0,4000,smoke,Low,6.17,0.0
16:40:15,-3.4000001,-1.29999995,9.10999966,-2.66084242,0.20082451,9.2989378,3.21031499,-0.33488506,0.08726646,0,19,312,19,312,29,19.0456303,72.893468,0,Local connecting road,33.02,0,4000,smoke,Low,6.17,0.0
16:40:15,-2.83999991,-0.07,9.17000008,-2.62890053,0.18438303,9.32882118,3.20376992,-0.33270338,0.07635815,0,19,312,19,312,29,19.0456303,72.893468,0,Local connecting road,33.02,0,4000,smoke,Low,6.17,0.0
16:40:15,-3.67000008,-0.95999998,9.28999996,-2.67422247,0.2276454,9.25821972,3.21031499,-0.33815753,0.0850848,0,19,312,19,312,29,19.0456303,72.893468,0,Local connecting road,33.02,0,4000,smoke,Low,6.17,0.0
16:40:15,-2.5999999,-1.42999995,9.36999989,-2.65934777,0.02896006,9.11561108,3.22013235,-0.24543692,0.09599311,0,19,312,19,312,29,19.0456303,72.893468,0,Local connecting road,33.02,0,4000,smoke,Low,6.17,1.0
16:40:15,-3.06999993,-0.66000003,8.90999985,-2.6462996,0.28401327,9.17438889,3.22667742,-0.33597589,0.10908308,0,19,312,19,312,29,19.0456303,72.893468,0,Local connecting road,33.02,0,4000,smoke,Low,6.17,0.0
16:40:15,-1.76999998,-0.67000002,9.26000023,-2.44368386,-0.15501527,9.18791962,3.21140575,-0.20834868,0.06108652,0,19,312,19,312,29,19.0456303,72.893468,0,Local connecting road,33.02,0,4000,smoke,Low,6.17,0.0
16:40:15,-1.69000006,-0.18000001,11.38000011,-2.32354093,-0.65996724,9.02281761,3.23758578,-0.16907877,0.04472406,0,19,312,19,312,29,19.0456303,72.893468,0,Local connecting road,33.02,0,4000,smoke,Low,6.17,0.0
16:40:15,-3.51999998,-1.25,11.09000015,-2.90667367,0.75463098,8.56604862,3.25831151,-0.32179508,0.1668971,0,19,312,19,312,29,19.0456303,72.893468,0,Local connecting road,33.02,0,4000,smoke,Low,6.17,0.0
16:40:15,-1.52999997,0.07,9.97999954,-2.31930757,-0.4732554,9.12832355,3.21795082,-0.16362461,0.04363323,0,19,312,19,312,29,19.0456303,72.893468,0,Local connecting road,33.02,0,4000,smoke,Low,6.17,0.0
16:40:15,-3.19000006,-1.72000003,8.93999958,-2.95644021,0.90358841,8.56127739,3.25176668,-0.32943091,0.16035213,0,19,312,19,312,29,19.0456303,72.893468,0,Local connecting road,33.02,0,4000,smoke,Low,6.17,0.0
16:40:15,-3.30999994,-1.63999999,8.17000008,-3.0020988,0.76206672,8.69310188,3.24194908,-0.33815753,0.16253379,0,19,312,19,312,29,19.0456303,72.893468,0,Local connecting road,33.02,0,4000,smoke,Low,6.17,0.0
16:40:15,-2.3499999,-0.12,10.57999992,-3.00130677,0.60967541,8.91091442,3.20813322,-0.3228859,0.16035213,0,19,312,19,312,29,19.0456303,72.893468,0,Local connecting road,33.02,0,4000,smoke,Low,6.17,0.0
16:40:15,-3.56999993,-2.05999994,9.65999985,-3.0292182,0.68184447,8.87873363,3.21140575,-0.33270338,0.16471545,0,19,312,19,312,29,19.0456303,72.893468,0,Local connecting road,33.02,0,4000,smoke,Low,6.17,0.0
16:40:15,-1.88,-0.01,9.73999977,-2.56872821,0.32110047,8.99633598,3.19395256,-0.29343349,0.09272061,0,19,312,19,312,29,19.0456303,72.893468,0,Local connecting road,33.02,0,4000,smoke,Low,6.17,0.0
16:40:15,-3.11999989,-1.67999995,7.63000011,-2.66489124,0.41154101,8.74544716,3.21904159,-0.29888764,0.10144726,0,19,312,19,312,29,19.0456303,72.893468,0,Local connecting road,33.02,0,4000,smoke,Low,6.17,0.0
16:40:15,-3.6099999,-1.25,10.42000008,-2.70768094,0.35442272,8.49412537,3.25503898,-0.29997846,0.12544554,0,19,312,19,312,29,19.0456303,72.893468,0,Local connecting road,33.02,0,4000,smoke,Low,6.17,0.0
16:40:15,-2.8900001,-0.95999998,8.88000011,-2.80715895,0.46035761,9.03678417,3.20267916,-0.32834005,0.13308136,0,19,312,19,312,29,19.0456303,72.893468,0,Local connecting road,33.02,0,4000,smoke,Low,6.17,0.0
16:40:15,-3.18000007,-1.17999995,8.17000008,-2.46138048,0.51300818,8.36987686,3.30739903,-0.3152501,0.09708394,0,19,312,19,312,29,19.0456303,72.893468,0,Local connecting road,33.02,0,4000,smoke,Low,6.17,0.0
16:40:15,-3.17000008,-1.25999999,8.97999954,-2.47922778,0.38628554,8.51070404,3.2997632,-0.31743175,0.09272061,0,19,312,19,312,29,19.0456303,72.893468,0,Local connecting road,33.02,0,4000,smoke,Low,6.17,0.0
16:40:15,-2.70000005,-0.55000001,9.43999958,-2.49344325,0.38042235,8.54950237,3.2855823,-0.30652344,0.08399397,0,19,312,19,312,29,19.0456303,72.893468,0,Local connecting road,33.02,0,4000,smoke,Low,6.17,0.0
16:40:15,-3.0999999,-1.09000003,9.10999966,-2.36776185,0.17951393,8.47557449,3.29649067,-0.28688851,0.06981317,0,19,312,19,312,29,19.0456303,72.893468,0,Local connecting road,33.02,0,4000,smoke,Low,6.17,0.0
16:40:15,-2.56999993,-0.04,9.77999973,-2.09679413,-0.09988885,8.68847561,3.2899456,-0.25634524,0.03599742,0,19,312,19,312,29,19.0456303,72.893468,0,Local connecting road,33.02,0,4000,smoke,Low,6.17,0.0
16:40:15,-1.97000003,0.15000001,9.40999985,-2.05689573,-0.20330358,8.82663155,3.26594734,-0.21707533,0.00218166,0,19,312,19,312,29,19.0456303,72.893468,0,Local connecting road,33.02,0,4000,smoke,Low,6.17,1.0
16:40:15,-2.18000007,-1.25999999,9.06000042,-2.17022038,-0.36163747,8.84783649,3.26376581,-0.19089539,0.01636246,0,19,312,19,312,29,19.0456303,72.893468,0,Local connecting road,33.02,0,4000,smoke,Low,6.17,0.0
16:40:15,-3.42000008,-1.64999998,10.13000011,-2.64046478,0.46255931,8.36208057,3.29321814,-0.30325097,0.12326388,0,19,312,19,312,29,19.0456303,72.893468,0,Local connecting road,33.02,0,4000,smoke,Low,6.17,0.0
16:40:18,-1.62,0.14,10.27000046,-2.19674397,-1.03386259,9.69337082,3.1699543,-0.2018037,0.01745329,0,19,312,19,312,29,19.0456303,72.893468,0,Local connecting road,33.02,0,4000,smoke,Low,6.17,0.0
16:40:18,-1.21000004,0.82999998,10.51000023,-1.78081429,-1.34081638,9.36970139,3.20158839,-0.09053896,-0.07635815,0,19,312,19,312,29,19.0456303,72.893468,0,Local connecting road,33.02,0,4000,smoke,Low,6.17,0.0
16:40:18,-1.10000002,1.00999999,9.93000031,-1.79746354,-1.22636867,9.46705532,3.17104506,-0.11453723,-0.08617564,0,19,312,19,312,29,19.0456303,72.893468,0,Local connecting road,33.02,0,4000,smoke,Low,6.17,0.0
16:40:18,-1.77999997,-0.23999999,7.84000015,-1.86232245,-0.97138381,9.69760704,3.15250087,-0.16471545,-0.06108652,0,19,312,19,312,29,19.0456303,72.893468,0,Local connecting road,33.02,0,4000,smoke,Low,6.17,0.0
16:40:18,-0.58999997,1.38,10.5,-1.94150245,-1.06818497,9.76739216,3.13177514,-0.13853551,-0.070904,0,19,312,19,312,29,19.0456303,72.893468,0,Local connecting road,33.02,0,4000,smoke,Low,6.17,0.0
16:40:18,-1.05999994,1.13,9.52000046,-1.9253341,-1.17127287,9.90244102,3.13504767,-0.15271631,-0.05017821,0,19,312,19,312,29,19.0456303,72.893468,0,Local connecting road,33.02,0,4000,smoke,Low,6.17,0.0
16:40:18,-3.22000003,-1.05999994,9.22999954,-2.65038919,-0.60469395,9.36097813,3.20158839,-0.25852689,0.070904,0,19,312,19,312,29,19.0456303,72.893468,0,Local connecting road,33.02,0,4000,smoke,Low,6.17,0.0
16:40:18,-3.4000001,-1.25,8.97999954,-2.65221858,-0.13507856,9.24683571,3.21358752,-0.30106929,0.07744899,0,19,312,19,312,29,19.0456303,72.893468,0,Local connecting road,33.02,0,4000,smoke,Low,6.17,0.0
16:40:18,-2.80999994,-0.85000002,9.93000031,-2.70043564,-0.2943005,9.27385235,3.20704246,-0.28143433,0.07308567,0,19,312,19,312,29,19.0456303,72.893468,0,Local connecting road,33.02,0,4000,smoke,Low,6.17,0.0
16:40:18,-3.01999998,-0.83999997,9.18000031,-2.64757466,-0.24733469,9.27858639,3.20813322,-0.28579766,0.06872234,0,19,312,19,312,29,19.0456303,72.893468,0,Local connecting road,33.02,0,4000,smoke,Low,6.17,0.0
16:40:18,-2.8499999,-0.47,9.61999989,-2.65372419,-0.18648949,9.28247356,3.20813322,-0.29234266,0.070904,0,19,312,19,312,29,19.0456303,72.893468,0,Local connecting road,33.02,0,4000,smoke,Low,6.17,0.0
16:40:18,-3.03999996,-0.61000001,10.22999954,-2.65070772,-0.08545008,9.2572813,3.20704246,-0.30543262,0.07526732,0,19,312,19,312,29,19.0456303,72.893468,0,Local connecting road,33.02,0,4000,smoke,Low,6.17,0.0
16:40:18,-3.03999996,-0.86000001,8.32999992,-2.65213799,0.08400501,9.31805515,3.20704246,-0.33597589,0.07853982,0,19,312,19,312,29,19.0456303,72.893468,0,Local connecting road,33.02,0,4000,smoke,Low,6.17,0.0
16:40:18,-3.03999996,-1.55999994,9.14999962,-2.72376442,-0.37290198,9.25177574,3.20922422,-0.28470683,0.0850848,0,19,312,19,312,29,19.0456303,72.893468,0,Local connecting road,33.02,0,4000,smoke,Low,6.17,0.0
16:40:19,-4.01999998,-0.64999998,12.93999958,-3.35824466,0.27880526,9.43878174,3.28449154,-0.30216011,0.11890055,0,19,312,19,312,29,19.0456303,72.893468,0,Local connecting road,33.02,0,4000,smoke,Low,6.17,0.0
16:40:19,-4.26000023,-3.16000009,6.36999989,-3.00223947,0.37213546,9.281703,3.29649067,-0.26507187,0.0283616,0,19,312,19,312,29,19.0456303,72.893468,0,Local connecting road,33.02,0,4000,smoke,Low,6.17,0.0
16:40:19,-3.44000006,-1.36000001,6.51000023,-3.28821731,0.43651667,9.52475643,3.27140141,-0.32397676,0.11780973,0,19,312,19,312,29,19.0456303,72.893468,0,Local connecting road,33.02,0,4000,smoke,Low,6.17,0.0
16:40:19,-1.20000005,5.48000002,14.97000027,-2.19532084,-0.26953021,9.59237576,3.23104072,-0.21925698,-0.07199483,0,19,312,19,312,29,19.0456303,72.893468,0,Local connecting road,33.02,0,4000,smoke,Low,6.17,0.0
16:40:19,-1.87,-0.57999998,10.82999992,-2.87727141,-0.42833385,9.78182793,3.24194908,-0.21925698,0.09162979,0,19,312,19,312,29,19.0456303,72.893468,0,Local connecting road,33.02,0,4000,smoke,Low,6.17,0.0
16:40:19,-0.64999998,0.28,10.61999989,-2.52280092,-0.9525547,10.09442902,3.18958926,-0.1559888,0.02508911,0,19,312,19,312,29,19.0456303,72.893468,0,Local connecting road,33.02,0,4000,smoke,Low,6.17,0.0
16:40:19,-1.07000005,0.49000001,8.81999969,-2.61685753,-0.88572866,10.04199028,3.17213583,-0.13853551,-0.00218166,0,19,312,19,312,29,19.0456303,72.893468,0,Local connecting road,33.02,0,4000,smoke,Low,6.17,0.0
16:40:19,1.05999994,2.32999992,6.13999987,-1.81438351,0.24313255,9.60512829,3.24849415,-0.23561946,-0.08835729,0,19,312,19,312,29,19.0456303,72.893468,0,Local connecting road,33.02,0,4000,smoke,Low,6.17,0.0
16:40:19,-3.6099999,-1.82000005,8.75,-3.32282805,-0.11086363,9.23731136,3.28776407,-0.27816185,0.10581058,0,19,312,19,312,29,19.0456303,72.893468,0,Local connecting road,33.02,0,4000,smoke,Low,6.17,0.0
16:40:19,-3.49000001,-2.78999996,9.02000046,-2.12679434,-0.15383154,8.92897034,3.39575624,-0.1734421,-0.00763582,0,19,312,19,312,29,19.0456303,72.893468,0,Local connecting road,33.02,0,4000,smoke,Low,6.17,0.0
16:40:19,-0.79000002,1.38999999,9.65999985,-1.39572632,-1.15926802,9.14197159,3.24740314,-0.07853982,-0.13962634,0,19,312,19,312,29,19.0456303,72.893468,0,Local connecting road,33.02,0,4000,smoke,Low,6.17,0.0
16:40:19,-0.72000003,1.76999998,9.44999981,-1.52894032,-0.96058136,8.44378853,3.34775972,-0.07744899,-0.14508049,0,19,312,19,312,29,19.0456303,72.893468,0,Local connecting road,33.02,0,4000,smoke,Low,6.17,0.0
16:40:19,-1.89999998,0.60000002,13.40999985,-2.2045989,-0.71315724,8.40836239,3.40775537,-0.08617564,-0.05126905,0,19,312,19,312,29,19.0456303,72.893468,0,Local connecting road,33.02,0,4000,smoke,Low,6.17,0.0
16:40:19,-1.38,0.33000001,9.68000031,-1.82424796,-1.2259376,9.24544525,3.22122335,-0.08399397,-0.08290314,0,19,312,19,312,29,19.0456303,72.893468,0,Local connecting road,33.02,0,4000,smoke,Low,6.17,1.0
16:40:19,-0.5,2.74000001,9.80000019,-1.17017436,-1.40897024,8.96648216,3.27467394,-0.06872234,-0.16362461,0,19,312,19,312,29,19.0456303,72.893468,0,Local connecting road,33.02,0,4000,smoke,Low,6.17,0.0
16:40:19,-0.76999998,0.74000001,10.02000046,-1.32877088,-1.26064086,8.53859043,3.34121466,-0.05235988,-0.16035213,0,19,312,19,312,29,19.0456303,72.893468,0,Local connecting road,33.02,0,4000,smoke,Low,6.17,0.0
16:40:19,-0.94999999,1.88,9.86999989,-1.40496302,-1.31816888,9.36389923,3.22994995,-0.08290314,-0.10799225,0,19,312,19,312,29,19.0456303,72.893468,0,Local connecting road,33.02,0,4000,smoke,Low,6.17,1.0
16:40:19,-0.44999999,1.38,11.22999954,-1.16660821,-1.30359828,8.87250519,3.37721205,-0.06326818,-0.13962634,0,19,312,19,312,29,19.0456303,72.893468,0,Local connecting road,33.02,0,4000,smoke,Low,6.17,0.0
16:40:19,-0.92000002,1.94000006,8.80000019,-1.05571353,-1.03782642,9.13504219,3.32267046,-0.07744899,-0.1592613,0,19,312,19,312,29,19.0456303,72.893468,0,Local connecting road,33.02,0,4000,smoke,Low,6.17,0.0
16:40:19,0.18000001,3.76999998,7.28999996,-0.87419927,-1.02068245,8.97012901,3.29758143,-0.07853982,-0.19962204,0,19,312,19,312,29,19.0456303,72.893468,0,Local connecting road,33.02,0,4000,smoke,Low,6.17,0.0
16:40:19,-2.20000005,-1.47000003,9.10000038,-1.7424829,-1.03024054,8.32564354,3.40011954,-0.08944812,-0.11235557,0,19,312,19,312,29,19.0456303,72.893468,0,Local connecting road,33.02,0,4000,smoke,Low,6.17,1.0
16:40:21,-1.73000002,0.60000002,9.43000031,-1.93869352,-0.01946273,9.78645134,3.20158839,-0.19416788,-0.05563237,0,19,312,19,312,29,19.0456276,72.893466,0,Local connecting road,33.02,0,4000,smoke,Low,6.17,0.0
16:40:21,-2.1500001,0.49000001,9.85999966,-1.91088724,0.11981975,9.75562763,3.19504333,-0.19634955,-0.07308567,0,19,312,19,312,29,19.0456276,72.893466,0,Local connecting road,33.02,0,4000,smoke,Low,6.17,0.0
16:40:21,-1.98000002,0.72000003,9.52999973,-1.95911968,-0.00222349,9.78377247,3.19613409,-0.19634955,-0.05781403,0,19,312,19,312,29,19.0456276,72.893466,0,Local connecting road,33.02,0,4000,smoke,Low,6.17,0.0
16:40:21,-2.17000008,0.49000001,9.55000019,-1.93332481,0.02048347,9.77480984,3.19831586,-0.19525871,-0.05890486,0,19,312,19,312,29,19.0456276,72.893466,0,Local connecting road,33.02,0,4000,smoke,Low,6.17,0.0
16:40:21,-1.87,0.99000001,9.80000019,-1.87754583,0.01231129,9.78143883,3.19722509,-0.19198622,-0.06435902,0,19,312,19,312,29,19.0456276,72.893466,0,Local connecting road,33.02,0,4000,smoke,Low,6.17,0.0
16:40:21,-1.88,0.52999997,9.30000019,-1.8328824,0.04226505,9.81162262,3.19395256,-0.19198622,-0.07308567,0,19,312,19,312,29,19.0456276,72.893466,0,Local connecting road,33.02,0,4000,smoke,Low,6.17,0.0
16:40:21,-2.1400001,0.63999999,9.68999958,-1.95956945,0.16636084,9.81862736,3.18958926,-0.20507619,-0.06981317,0,19,312,19,312,29,19.0456276,72.893466,0,Local connecting road,33.02,0,4000,smoke,Low,6.17,0.0
16:40:21,-3.30999994,-0.05,9.51000023,-2.30685353,0.4859238,9.6235733,3.19940662,-0.23343779,-0.02727077,0,19,312,19,312,29,19.0456276,72.893466,0,Local connecting road,33.02,0,4000,smoke,Low,6.17,0.0
16:40:21,-2.33999991,0.30000001,10.19999981,-2.12723279,0.22266193,9.76307106,3.18958926,-0.20943952,-0.04908739,0,19,312,19,312,29,19.0456276,72.893466,0,Local connecting road,33.02,0,4000,smoke,Low,6.17,0.0
16:40:21,-1.82000005,1.17999995,9.71000004,-2.06596303,0.15238367,9.81468487,3.1830442,-0.20289452,-0.05563237,0,19,312,19,312,29,19.0456276,72.893466,0,Local connecting road,33.02,0,4000,smoke,Low,6.17,0.0
16:40:21,-2.47000003,1.04999995,9.55000019,-2.17388129,0.309986,9.76651573,3.18522596,-0.20943952,-0.04799655,0,19,312,19,312,29,19.0456276,72.893466,0,Local connecting road,33.02,0,4000,smoke,Low,6.17,0.0
16:40:21,-3.77999997,0.34,8.23999977,-2.33815384,0.44686782,9.55915165,3.20486093,-0.24652776,-0.02399828,0,19,312,19,312,29,19.0456276,72.893466,0,Local connecting road,33.02,0,4000,smoke,Low,6.17,0.0
16:40:21,-3.72000003,0.43000001,9.22999954,-2.37191582,0.29095545,9.60156822,3.20376992,-0.23125613,-0.02181662,0,19,312,19,312,29,19.0456276,72.893466,0,Local connecting road,33.02,0,4000,smoke,Low,6.17,0.0
16:40:21,-1.87,1.22000003,8.26000023,-2.16771507,0.02043632,9.67273712,3.19068003,-0.19525871,-0.05017821,0,19,312,19,312,29,19.0456276,72.893466,0,Local connecting road,33.02,0,4000,smoke,Low,6.17,0.0
16:40:21,-2.11999989,0.14,10.18999958,-1.97732759,-0.02835481,9.7568512,3.20376992,-0.19744037,-0.05235988,0,19,312,19,312,29,19.0456276,72.893466,0,Local connecting road,33.02,0,4000,smoke,Low,6.17,0.0
16:40:21,-1.89999998,0.93000001,9.10999966,-2.04351568,0.20858361,9.7885294,3.18522596,-0.20943952,-0.06217736,0,19,312,19,312,29,19.0456276,72.893466,0,Local connecting road,33.02,0,4000,smoke,Low,6.17,0.0
16:40:21,-1.73000002,0.75999999,9.52999973,-1.94941592,0.01070938,9.72863674,3.20595169,-0.20289452,-0.06326818,0,19,312,19,312,29,19.0456276,72.893466,0,Local connecting road,33.02,0,4000,smoke,Low,6.17,0.0
16:40:21,-0.74000001,1.70000005,8.60999966,-2.82332325,0.00135256,9.18720722,3.21467829,-0.16362461,0.00436332,0,19,312,19,312,29,19.0456276,72.893466,0,Local connecting road,33.02,0,4000,smoke,Low,6.17,0.0
16:40:21,-2.97000003,0.18000001,9.23999977,-1.92643499,0.09800284,9.62984943,3.22885919,-0.23561946,-0.05890486,0,19,312,19,312,29,19.0456276,72.893466,0,Local connecting road,33.02,0,4000,smoke,Low,6.17,0.0
16:40:21,-1.91999996,0.36000001,9.35999966,-2.54167032,-0.63112658,9.97873783,3.1743176,-0.17016961,-0.00109083,0,19,312,19,312,29,19.0456276,72.893466,0,Local connecting road,33.02,0,4000,smoke,Low,6.17,0.0
16:40:21,-2.22000003,-0.28999999,9.48999977,-2.39191198,-0.68187904,10.01796341,3.18195343,-0.17235127,-0.01636246,0,19,312,19,312,29,19.0456276,72.893466,0,Local connecting road,33.02,0,4000,smoke,Low,6.17,0.0
16:40:21,-1.55999994,-0.60000002,10.28999996,-2.51859879,-0.81744146,10.27697945,3.15795517,-0.14726216,-0.01090831,0,19,312,19,312,29,19.0456276,72.893466,0,Local connecting road,33.02,0,4000,smoke,Low,6.17,0.0
16:40:21,-0.79000002,1.17999995,8.89000034,-2.34682679,-0.85405517,10.37664032,3.11868525,-0.13526301,-0.01963495,0,19,312,19,312,29,19.0456276,72.893466,0,Local connecting road,33.02,0,4000,smoke,Low,6.17,1.0
16:40:21,-0.75,0.95999998,9.59000015,-2.47720289,-0.74488658,10.19491959,3.12632108,-0.13199052,-0.00436332,0,19,312,19,312,29,19.0456276,72.893466,0,Local connecting road,33.02,0,4000,smoke,Low,6.17,0.0
16:40:21,-1.33000004,1.91999996,9.18000031,-1.91389382,0.02541775,9.71456528,3.20704246,-0.212712,-0.07417649,0,19,312,19,312,29,19.0456276,72.893466,0,Local connecting road,33.02,0,4000,smoke,Low,6.17,0.0
16:40:21,-2.23000002,-0.81,10.01000023,-2.49008846,-0.09305783,9.9884367,3.17104506,-0.20725785,0.02945243,0,19,312,19,312,29,19.0456276,72.893466,0,Local connecting road,33.02,0,4000,smoke,Low,6.17,0.0
16:40:21,-0.94,0.08,10.23999977,-2.68227148,-0.57342637,10.05862141,3.15031934,-0.15053464,0.03490658,0,19,312,19,312,29,19.0456276,72.893466,0,Local connecting road,33.02,0,4000,smoke,Low,6.17,0.0
16:40:21,-1.75999999,0.76999998,10.15999985,-2.07475066,0.127111,10.00542259,3.16886353,-0.23561946,-0.03708825,0,19,312,19,312,29,19.0456276,72.893466,0,Local connecting road,33.02,0,4000,smoke,Low,6.17,0.0
16:40:21,-3.38000011,0.38999999,7.94000006,-2.02796817,0.21199378,9.97391415,3.17977166,-0.26070857,-0.05345071,0,19,312,19,312,29,19.0456276,72.893466,0,Local connecting road,33.02,0,4000,smoke,Low,6.17,0.0
16:40:21,-2.46000004,0.79000002,9.23999977,-1.97964633,0.15311639,10.04376125,3.16777253,-0.24980025,-0.05999569,0,19,312,19,312,29,19.0456276,72.893466,0,Local connecting road,33.02,0,4000,smoke,Low,6.17,0.0
16:40:21,-2.44000006,0.88,9.18999958,-2.05071592,0.23319155,10.02239895,3.1601367,-0.24543692,-0.06326818,0,19,312,19,312,29,19.0456276,72.893466,0,Local connecting road,33.02,0,4000,smoke,Low,6.17,0.0
16:40:21,-1.92999995,1.40999997,8.90999985,-2.1028142,0.27387771,9.90153885,3.16668177,-0.24870943,-0.04908739,0,19,312,19,312,29,19.0456276,72.893466,0,Local connecting road,33.02,0,4000,smoke,Low,6.17,0.0
16:40:21,-2.58999991,-0.30000001,10.0,-1.9741329,0.23728767,9.60950851,3.21467829,-0.24652776,-0.03926991,0,19,312,19,312,29,19.0456276,72.893466,0,Local connecting road,33.02,0,4000,smoke,Low,6.17,0.0
16:40:21,-3.22000003,-0.25,8.86999989,-1.91513777,0.16445443,9.53530598,3.23758578,-0.24107361,-0.05890486,0,19,312,19,312,29,19.0456276,72.893466,0,Local connecting road,33.02,0,4000,smoke,Low,6.17,0.0
16:40:21,-3.22000003,0.14,7.76999998,-2.24804926,0.03961583,10.06289291,3.1699543,-0.24543692,-0.00763582,0,19,312,19,312,29,19.0456276,72.893466,0,Local connecting road,33.02,0,4000,smoke,Low,6.17,0.0
16:40:24,-3.50999999,-1.13999999,8.22000027,-2.99229503,1.10398817,6.8039875,3.604105,-0.29125181,0.18871373,0,19,312,19,312,29,19.0456276,72.893466,0,Local connecting road,33.02,0,4000,smoke,Low,6.17,0.0
16:40:24,-2.82999992,-0.54000002,9.14999962,-2.58360457,0.6997838,7.24071455,3.54629087,-0.25852689,0.14944382,0,19,312,19,312,29,19.0456276,72.893466,0,Local connecting road,33.02,0,4000,smoke,Low,6.17,0.0
16:40:24,-3.70000005,-2.04999995,9.86999989,-2.86857605,0.67946047,7.46174955,3.51138425,-0.26289022,0.18653207,0,19,312,19,312,29,19.0456276,72.893466,0,Local connecting road,33.02,0,4000,smoke,Low,6.17,0.0
16:40:24,-3.28999996,-0.73000002,8.98999977,-3.01160812,0.70391369,7.66447639,3.47211432,-0.25525442,0.17998707,0,19,312,19,312,29,19.0456276,72.893466,0,Local connecting road,33.02,0,4000,smoke,Low,6.17,0.0
16:40:24,-2.75999999,-1.76999998,10.78999996,-3.104599,0.15109459,8.74330711,3.30739903,-0.1843504,0.14617133,0,19,312,19,312,29,19.0456276,72.893466,0,Local connecting road,33.02,0,4000,smoke,Low,6.17,0.0
16:40:24,-1.69000006,0.58999997,9.01000023,-3.41378999,0.62144351,8.23362255,3.36194038,-0.22034782,0.14726216,0,19,312,19,312,29,19.0456276,72.893466,0,Local connecting road,33.02,0,4000,smoke,Low,6.17,0.0
16:40:24,-2.16000009,-0.40000001,8.44999981,-2.86459446,0.1945852,8.62902832,3.32594299,-0.19307704,0.11890055,0,19,312,19,312,29,19.0456276,72.893466,0,Local connecting road,33.02,0,4000,smoke,Low,6.17,0.0
16:40:24,-3.76999998,-2.25999999,10.94999981,-3.17913175,0.14967556,8.86966324,3.28449154,-0.17998707,0.12980886,0,19,312,19,312,29,19.0456276,72.893466,0,Local connecting road,33.02,0,4000,smoke,Low,6.17,0.0
16:40:24,-3.61999989,-2.68000007,10.09000015,-3.20905161,0.72630221,7.88242483,3.4339354,-0.24870943,0.1985312,0,19,312,19,312,29,19.0456276,72.893466,0,Local connecting road,33.02,0,4000,smoke,Low,6.17,0.0
16:40:25,-3.75999999,-0.40000001,9.47999954,-2.58640218,0.66168022,7.90490007,3.55501747,-0.31306842,0.06326818,0,19,312,19,312,29,19.0456274,72.8934659,0,Local connecting road,33.02,0,4000,smoke,Low,6.17,0.0
16:40:25,-4.25,-1.58000004,10.0,-2.64307618,0.54959714,8.06338024,3.54847264,-0.28143433,0.06217736,0,19,312,19,312,29,19.0456274,72.8934659,0,Local connecting road,33.02,0,4000,smoke,Low,6.17,0.0
16:40:25,-3.48000002,0.38,11.0,-2.62090683,0.25493327,7.82760763,3.54083681,-0.25852689,0.03381575,0,19,312,19,312,29,19.0456274,72.8934659,0,Local connecting road,33.02,0,4000,smoke,Low,6.17,0.0
16:40:25,-3.44000006,-0.17,6.25,-2.23399925,0.3355059,8.00224018,3.53865504,-0.29779682,0.00981748,0,19,312,19,312,29,19.0456274,72.8934659,0,Local connecting road,33.02,0,4000,smoke,Low,6.17,0.0
16:40:25,-3.05999994,-0.52999997,10.10999966,-2.154387,0.39144734,7.8305006,3.5724709,-0.29997846,0.04581489,0,19,312,19,312,29,19.0456274,72.8934659,0,Local connecting road,33.02,0,4000,smoke,Low,6.17,0.0
16:40:25,-5.78000021,-2.93000007,8.10999966,-2.78385711,0.76799983,6.8987298,3.7055521,-0.33052173,0.16798794,0,19,312,19,312,29,19.0456274,72.8934659,0,Local connecting road,33.02,0,4000,smoke,Low,6.17,0.0
16:40:25,-4.9000001,-1.41999996,9.02000046,-2.59465504,0.67462736,7.44585514,3.63573909,-0.32943091,0.12653637,0,19,312,19,312,29,19.0456274,72.8934659,0,Local connecting road,33.02,0,4000,smoke,Low,6.17,0.0
16:40:25,-4.9000001,-2.5,8.07999992,-2.4932642,0.78130776,6.52619648,3.7426405,-0.31961343,0.15707964,0,19,312,19,312,29,19.0456274,72.8934659,0,Local connecting road,33.02,0,4000,smoke,Low,6.17,0.0
16:40:25,-4.67000008,-0.69999999,8.43999958,-2.59164715,0.93577313,6.32511139,3.75354862,-0.32724923,0.1734421,0,19,312,19,312,29,19.0456274,72.8934659,0,Local connecting road,33.02,0,4000,smoke,Low,6.17,0.0
16:40:25,-5.86999989,-3.32999992,8.15999985,-2.69235682,1.09290624,6.20320034,3.76227546,-0.33706671,0.20725785,0,19,312,19,312,29,19.0456274,72.8934659,0,Local connecting road,33.02,0,4000,smoke,Low,6.17,0.0
16:40:25,-4.30999994,-1.08000004,7.5999999,-2.73625708,1.1681695,6.31264067,3.7328229,-0.34252086,0.21162117,0,19,312,19,312,29,19.0456274,72.8934659,0,Local connecting road,33.02,0,4000,smoke,Low,6.17,0.0
